City_ID,City,Country,Max Temp,Current Description,Lat,Lng,Hotel Name
5,Jalu,LY,84.4,clear sky,29.0331,21.5482,صاحبة الفخامة
12,Hithadhoo,MV,83.84,broken clouds,-0.6,73.0833,Scoop Guest House
13,Bengkulu,ID,83.05,few clouds,-3.8004,102.2655,Grage Hotel Bengkulu
14,Sheregesh,RU,76.91,overcast clouds,52.9209,87.9869,Akvilon Hotel
19,Thinadhoo,MV,83.97,scattered clouds,0.5333,72.9333,
21,Mgandu,TZ,76.6,clear sky,-5.95,34.1333,
26,Bechem,GH,75.97,overcast clouds,7.0903,-2.025,Orange Hotel
31,Japura,ID,88.92,broken clouds,-0.3167,102.35,Rumah mbah Jamah
37,Kralendijk,BQ,80.58,scattered clouds,12.15,-68.2667,Divi Flamingo Beach Resort & Casino
41,Alice Town,BS,83.17,scattered clouds,25.7167,-79.3,Bimini Big Game Club Resort & Marina
42,Waddan,LY,82.2,clear sky,29.1614,16.139,محل الشريف محمد العايب
46,Souillac,MU,79.18,scattered clouds,-20.5167,57.5167,Shanti Maurice Resort & Spa
58,Sao Filipe,CV,75.02,overcast clouds,14.8961,-24.4956,Hotel Xaguate
61,Masallatah,LY,78.03,clear sky,32.6167,14.0,Mustafa Taher Sowaidan
65,Sarh,TD,85.98,overcast clouds,9.1429,18.3923,Domicile 1sur le goudron
66,Bambous Virieux,MU,79.05,scattered clouds,-20.3428,57.7575,Casa Tia Villa
70,Mahebourg,MU,79.09,scattered clouds,-20.4081,57.7,Shandrani Beachcomber Resort & Spa
73,Dese,ET,78.17,overcast clouds,11.1333,39.6333,Joamla Hotel
78,Hamilton,US,77.25,mist,39.1834,-84.5333,Six Acres Bed & Breakfast
79,Kalmunai,LK,88.52,overcast clouds,7.4167,81.8167,VS Villa
81,Saint-Philippe,RE,80.19,scattered clouds,-21.3585,55.7679,"Chambres d'hôte ""La Trinité"""
85,Maxixe,MZ,76.59,clear sky,-23.8597,35.3472,Oceano
89,Bereda,ES,76.96,broken clouds,43.2686,-7.5406,Pazo de Verdes
92,Saint-Georges,GD,80.28,broken clouds,12.0564,-61.7485,Radisson Grenada Beach Resort
98,Torrelodones,ES,85.24,clear sky,40.5765,-3.9266,Los Peñascales
99,Dangriga,BZ,80.33,overcast clouds,16.9692,-88.2321,Chaleanor Hotel
100,Quelimane,MZ,77.22,few clouds,-17.8786,36.8883,Hotel Flamingo
102,Saint-Leu,RE,79.66,broken clouds,-21.15,55.2833,La Caz Oceane
104,Takoradi,GH,81.73,broken clouds,4.8845,-1.7554,Raybow International Hotel
106,Xai-Xai,MZ,76.03,clear sky,-25.0519,33.6442,Complexo da Familia
107,Owando,CG,84.69,overcast clouds,-0.4819,15.8999,Exaunel Hotel Owando
118,Bonthe,SL,79.5,overcast clouds,7.5264,-12.505,Bonthe Holiday Village
121,Dinguiraye,GN,79.12,clear sky,11.3,-10.7167,
124,Bauchi,NG,83.8,overcast clouds,10.5,10.0,
125,Pyatnitskoye,RU,78.1,few clouds,50.4233,37.8273,
128,The Valley,AI,80.1,clear sky,18.217,-63.0578,CeBlue Villas & Beach Resort
129,Oistins,BB,80.69,scattered clouds,13.0667,-59.5333,Butterfly Beach Hotel
131,Altay,CN,82.29,overcast clouds,47.8667,88.1167,Jinqiao Hotel
134,Conakry,GN,77.07,light rain,9.538,-13.6773,Riviera Royal Hotel
135,Kaabong,UG,77.2,clear sky,3.4836,34.1492,Madona Guest House Kaabong
149,Bandar-E Anzali,IR,82.51,clear sky,37.4727,49.4622,هتل بیاچ
150,Georgetown,MY,87.73,thunderstorm,5.4112,100.3354,Cititel Penang
154,Luangwa,ZM,78.62,clear sky,-15.6167,30.4167,Gerasimos Safari Lodge
157,Abu Samrah,SY,83.14,clear sky,35.3029,37.1841,
159,Mikumi,TZ,81.21,clear sky,-7.4041,36.9831,Morio Motel and Campsite
160,Gat,IL,85.78,clear sky,31.61,34.7642,OlusHome
161,Muros,ES,80.69,clear sky,42.7762,-9.0603,Apartment Av. Castelao
164,West Bay,KY,82.0,overcast clouds,19.3667,-81.4167,Calypso Cove
165,Hoima,UG,84.63,broken clouds,1.4356,31.3436,Tik Hotel
167,Boysun,UZ,87.93,clear sky,38.2061,67.1986,Gaza Hotel
168,Dunmore Town,BS,80.33,clear sky,25.5,-76.65,Coral Sands Hotel
178,Virginia Beach,US,80.64,overcast clouds,36.8529,-75.978,Hilton Virginia Beach Oceanfront
181,Wajir,KE,82.36,broken clouds,1.7471,40.0573,Al-bustan Hotel And Restaurant.
182,Oussouye,SN,80.78,overcast clouds,12.485,-16.5469,Auberge du Routard
195,Inhambane,MZ,76.26,clear sky,-23.865,35.3833,Oceano
196,Buchanan,LR,80.71,broken clouds,5.8808,-10.0467,Kamaneahn Hotel Inc
197,Kindu,CD,86.7,broken clouds,-2.95,25.95,Résidence Okanda
198,Padang,ID,84.25,light rain,-0.9492,100.3543,Mercure Padang
200,Suruc,TR,84.36,clear sky,36.9761,38.425,PEHLİVANKESMESİ KÖYÜ
206,Mezhdurechensk,RU,82.74,broken clouds,53.6942,88.0603,Apartments Mezhdurechensk
207,Sayyan,YE,80.49,overcast clouds,15.1718,44.3244,ملاطف ابوحورية
209,Atasu,KZ,78.33,clear sky,48.6814,71.6433,Dostyk
212,Bayir,TR,84.72,few clouds,37.2687,28.2167,Hotel Babadag
216,Bud,US,81.36,overcast clouds,39.447,-86.1758,Ted McQuinn Trust
217,Mao,ES,84.76,clear sky,39.8885,4.2658,ARTIEM Capri
225,Aksay,RU,84.42,overcast clouds,47.26,39.87,Chernaya Zhemchuzhina
227,Mattru,SL,75.9,overcast clouds,7.6244,-11.8332,"Mondkor Town, Bagbo Chiefdom, Bo District"
228,Kalemie,CD,79.23,few clouds,-5.9475,29.1947,Mahobilali
230,Victoria,HK,79.97,heavy intensity rain,22.2855,114.1577,Mini Central
231,Beloha,MG,78.71,clear sky,-25.1667,45.05,
233,Belem,BR,75.24,clear sky,-1.4558,-48.5044,Mercure Belém Boulevard
234,Ibb,YE,87.26,scattered clouds,13.9667,44.1833,Hotel Amenities
236,Muli,MV,83.86,overcast clouds,2.9167,73.5667,Medhufushi Island Resort
241,Les Cayes,HT,75.67,broken clouds,18.2,-73.75,Villa Orphee
242,Mucurapo,TT,75.02,overcast clouds,10.6667,-61.5333,Courtyard by Marriott Port of Spain
248,Hobyo,SO,87.17,clear sky,5.3505,48.5268,Iftin hotel hobyo
250,Taraz,KZ,86.41,overcast clouds,42.9,71.3667,Comfort Inn
251,Marsa Matruh,EG,80.8,scattered clouds,31.3525,27.2453,Beau Site
252,Jumla,NP,80.11,scattered clouds,29.2747,82.1838,Royal Garden Hotel
254,Pshekhskaya,RU,80.69,overcast clouds,44.696,39.7967,Gostevoy Dom Sorento
262,Kargasok,RU,76.59,broken clouds,59.0556,80.8572,Hotel Kargasok
265,Bathsheba,BB,81.21,scattered clouds,13.2167,-59.5167,Atlantis Hotel
266,Grand Gaube,MU,79.2,broken clouds,-20.0064,57.6608,Veranda Paul et Virginie Hotel & Spa
267,Eydhafushi,MV,83.7,overcast clouds,5.1033,73.0708,Soneva Fushi
270,Iralaya,HN,79.97,overcast clouds,15.0,-83.2333,Iglesia morava renovada
273,Goreloye,RU,75.83,clear sky,52.937,41.5043,Berendey
274,Odweyne,SO,87.66,broken clouds,9.4092,45.064,Eng Hiirey House
276,Madison,US,79.75,clear sky,34.7334,-86.5667,Embassy Suites by Hilton Huntsville Hotel & Spa
279,Meulaboh,ID,84.04,broken clouds,4.1363,96.1285,Kost Pria
281,Cayenne,GF,76.08,mist,4.9333,-52.3333,Hôtel Le Dronmi
282,Mangrol,IN,88.45,scattered clouds,21.1167,70.1167,Hotel The Royal Honours
284,Uvinza,TZ,82.96,few clouds,-5.1036,30.3911,Crown Lodge and lounge
290,Salalah,OM,88.36,overcast clouds,17.0151,54.0924,"HAMDAN PLAZA HOTEL SALALAH, an HTG Hotel"
294,Fougamou,GA,79.3,overcast clouds,-1.2154,10.5838,Résidence d'Hôtes Bapedy
302,Puerto Cabezas,NI,77.23,overcast clouds,14.0351,-83.3888,Cabaña Caribe
305,Khandbari,NP,84.11,broken clouds,27.3747,87.2039,Sainik Hotel And Lodge
312,Kismayo,SO,83.07,few clouds,-0.3582,42.5454,Agan-Hotel
317,Kutum,SD,83.26,overcast clouds,14.2,24.6667,Dibbo areaمنطقة دبو
321,Faya,SA,86.52,broken clouds,18.3851,42.4509,املاك خالد الشعشوع
322,Tema,GH,81.01,clear sky,5.667,-0.0166,Beulah Royale Hotel Tema
325,Manavgat,TR,76.15,overcast clouds,36.7867,31.4431,Lake & River Side Hotel & Spa
327,Axim,GH,81.25,overcast clouds,4.8699,-2.2405,Axim Beach Resort And Spa
329,Gairo,IT,78.17,clear sky,39.8497,9.5047,La Nuova Luna
337,Durusu,TR,75.83,clear sky,41.3053,28.6767,Durusu Talebe Yurdu
340,Cumana,VE,75.83,overcast clouds,10.4635,-64.1775,Posada Acuarela Los Roques
341,Marsh Harbour,BS,79.86,few clouds,26.5412,-77.0636,Abaco Beach Resort
343,Verkhniy Baskunchak,RU,82.18,clear sky,48.2256,46.7217,Kombat
348,Abu Kamal,SY,88.74,clear sky,34.4506,40.9171,البوكمال
356,Svrljig,RS,75.87,scattered clouds,43.4133,22.1211,apartman Viktor
358,Corinto,GR,85.41,clear sky,37.9407,22.9573,Ephira Hotel
360,Bubaque,GW,78.15,light rain,11.2833,-15.8333,"Casa Dora, Bubaque"
363,Chibuto,MZ,75.67,clear sky,-24.6867,33.5306,Residência Masculina da Escola Superior de Negocios e Empreendedorismo de Chibuto
364,Urumqi,CN,88.75,few clouds,43.801,87.6005,Hua Ling Grand Hotel Urumqi
370,Xuddur,SO,88.32,clear sky,4.1213,43.8894,Banjanay Hotel
372,Tabriz,IR,80.06,dust,38.08,46.2919,Sina Hotel
377,Ziway,ET,78.17,broken clouds,7.9333,38.7167,Haile Resort Ziway Batu
378,Guarda,PT,80.91,overcast clouds,40.5373,-7.2658,Hotel Lusitânia Congress & Spa
380,Karacabey,TR,79.18,clear sky,40.2152,28.4038,Uludağ Üniversitesi Sadık Yılmaz Öğrenci Yurdu
383,Mbini,GQ,80.44,overcast clouds,1.574,9.6134,
393,Shetpe,KZ,89.64,overcast clouds,44.1667,52.1167,Rtsm Shetpe Analog
398,Warri,NG,83.44,light rain,5.5167,5.75,BON Hotel Delta
401,Jammal,TN,82.08,clear sky,35.6223,10.757,نهج ابن خلدون
402,Dhankuta,NP,79.81,broken clouds,26.9833,87.3333,Hotel Kanjirowa
407,Bara,NG,86.56,broken clouds,10.3744,10.7288,
412,Saint-Joseph,RE,79.18,scattered clouds,-21.3667,55.6167,"""Plantation Bed and Breakfast"
414,Mahibadhoo,MV,83.46,overcast clouds,3.7833,72.9667,Omadhoo Inn
415,Sidi Ali,DZ,84.25,few clouds,36.0998,0.4206,Complexe touristique haje bezine
416,Karaton,ID,81.46,light rain,-6.3424,106.1045,Parkir Mobil Wisata CAS Water Park
418,Andros Town,BS,80.56,clear sky,24.7,-77.7667,Hanks place
420,Mubi,NG,88.23,broken clouds,10.2676,13.2644,LASVEGAS BAR AND MOTEL
423,Port-Gentil,GA,80.56,scattered clouds,-0.7193,8.7815,Fengshui Residence
424,Ion Corvin,RO,79.29,clear sky,44.1167,27.8,Cave Monastery of St. Andrew
429,Dingle,PH,84.65,light rain,10.9995,122.6711,SEGAYA PROPERTY
432,Betare Oya,CM,77.65,light rain,5.6,14.0833,Auberge Tembina Betaré Oya
434,Sibut,CF,82.22,overcast clouds,5.718,19.0739,
435,Rameswaram,IN,83.84,overcast clouds,9.2833,79.3,Daiwik Hotels Rameswaram
437,Mantua,IT,82.09,clear sky,45.1667,10.7833,Hotel la Favorita
438,Bukoba,TZ,76.01,light rain,-1.3317,31.8122,Elct Bukoba Hotel and Tours
444,Lucapa,AO,84.13,clear sky,-8.4192,20.7447,Lírio Mendes
449,Kavaratti,IN,83.7,moderate rain,10.5669,72.642,Hotels in Lakshadweep Islands
451,Lavumisa,SZ,75.0,overcast clouds,-27.31,31.892,ROADSIDE B&B
452,Harper,LR,81.36,clear sky,4.375,-7.7169,Screensaver
454,Kyabe,TD,85.33,overcast clouds,9.4515,18.9449,
455,Mumford,GH,80.44,scattered clouds,5.2618,-0.759,Spanish Villa
456,Cockburn Town,TC,79.63,clear sky,21.4612,-71.1419,Osprey Beach Hotel
462,Panjakent,TJ,88.61,clear sky,39.4952,67.6093,Salom Hostel
463,Road Town,VG,78.89,clear sky,18.4167,-64.6167,"ZINGARA 76ft Catamaran, full crew-all included"
464,Tsiroanomandidy,MG,78.51,clear sky,-18.7667,46.0333,Hotel Ravinala
470,Kudahuvadhoo,MV,83.66,overcast clouds,2.6708,72.8944,Niyama Private Islands Maldives
471,Utuado,PR,75.61,few clouds,18.2655,-66.7004,Western Union
473,Quatre Cocos,MU,78.1,broken clouds,-20.2078,57.7625,Sunrise Attitude Hotel
475,Cap Malheureux,MU,78.48,broken clouds,-19.9842,57.6142,Pereybere Hotel & Spa
479,Betanzos,ES,77.97,clear sky,43.2804,-8.2147,Hotel Garelos Betanzos
483,Tonj,SS,89.56,overcast clouds,7.2737,28.6822,Lakan Hotel
485,Saint-Francois,FR,75.67,clear sky,46.4154,3.9054,Manoir Du Bonheur
488,Savalou,BJ,82.15,scattered clouds,7.9281,1.9756,Hotel F&F
490,La Asuncion,VE,76.66,overcast clouds,11.0333,-63.8628,Colinas de Matasiete
495,Krasnogorskoye,RU,78.84,overcast clouds,52.2953,86.1979,"Gostinitsa - Baza Otdykha ""Krasnogor'ye"""
496,Ugoofaaru,MV,83.19,overcast clouds,5.6667,73.0,Ungoofaaru Inn
501,Adana,TR,75.22,broken clouds,36.985,35.2881,ibis Adana
502,Shamkhal,RU,78.78,scattered clouds,43.0596,47.3373,
506,Ayagoz,KZ,78.03,broken clouds,47.9714,80.4392,ХАН
510,San Andres,CO,80.67,light rain,12.5847,-81.7006,Hotel Arena Blanca
512,Bria,CF,83.52,overcast clouds,6.5423,21.9863,WFP Guesthouse
514,Abha,SA,88.05,clear sky,18.2164,42.5053,Abha Hotel
516,Islahiye,TR,77.77,light rain,37.025,36.6306,İslahiye Sabanci Teachers
519,Ajdabiya,LY,81.21,clear sky,30.7554,20.2263,Almadina Hotel
523,Albemarle,US,79.36,clear sky,35.3501,-80.2001,"Holiday Inn Express & Suites Albemarle, an IHG Hotel"
527,Mogadishu,SO,82.31,few clouds,2.0371,45.3438,Hotel Juba
528,Angoche,MZ,79.57,clear sky,-16.2325,39.9086,Guest House HESADA
531,Kedrovyy,RU,84.61,light rain,56.1667,91.8167,
534,Sile,TR,75.87,clear sky,41.1754,29.6133,Phellos Suites
535,Rafai,CF,86.99,overcast clouds,4.95,23.9167,
537,Sur,OM,89.94,clear sky,22.5667,59.5289,Sur Plaza Hotel
539,Rincon,US,81.86,clear sky,32.296,-81.2354,Days Inn Rincon
540,Menongue,AO,75.15,clear sky,-14.6585,17.691,Ritz Lauca
543,Sciacca,IT,87.03,clear sky,37.5082,13.0881,Hotel Aliai
547,Nyanguge,TZ,78.93,few clouds,-2.55,33.2,Macho lodge
549,Belyy Yar,RU,83.86,clear sky,53.6039,91.3903,Pasportnyy Stol
551,Massaguet,TD,87.96,broken clouds,12.4755,15.4365,Alwatane
554,Aras,ES,77.41,clear sky,42.5617,-2.356,Jardines de Viana Spa
556,Sao Tome,ST,79.61,broken clouds,0.3365,6.7273,Pestana Miramar São Tomé
563,Koungou,YT,85.71,scattered clouds,-12.7336,45.2042,Villa Netibor
568,Kamina,CD,82.89,clear sky,-8.7386,24.9906,Guest House Florvia
572,High Rock,BS,78.82,clear sky,26.6208,-78.2833,Hideaway Bahamas Beach Club
574,Benguela,AO,78.37,clear sky,-12.5763,13.4055,Hotel Praia Morena
575,Kathmandu,NP,84.42,broken clouds,27.7167,85.3167,Hotel Shanker Kathmandu
576,Boyabat,TR,81.68,clear sky,41.4689,34.7667,Kolaz Palas Otel
579,Micheweni,TZ,80.01,clear sky,-4.9667,39.8333,
581,Edirne,TR,85.8,clear sky,41.6772,26.556,Rys Hotel & Restaurant
583,Zemio,CF,86.68,overcast clouds,5.0314,25.1361,OCHA Office
592,Kondoa,TZ,77.04,broken clouds,-4.9,35.7833,Bab Al Shams Inland Lodge
596,Sopotnica,MK,75.56,clear sky,41.2947,21.155,
597,Valdosta,US,76.98,broken clouds,30.8327,-83.2785,Courtyard by Marriott Valdosta
599,Nijar,ES,76.66,clear sky,36.9665,-2.206,La Casa del Cine
600,Santo Tomas,PH,87.57,broken clouds,14.1079,121.1414,Microtel by Wyndham Batangas
603,Tabou,CI,80.4,clear sky,4.423,-7.3528,hotêl doufoulougou
604,Marrakesh,MA,80.67,scattered clouds,31.6315,-8.0083,Les Jardins de La Koutoubia
607,Kuntaur,GM,82.06,broken clouds,13.6667,-14.8833,Kairoh Garden Kuntaur
614,Maghar,IL,79.38,scattered clouds,32.8898,35.407,אירוח כפרי - קיבוץ מורן
617,Saint-Pierre,RE,80.28,clear sky,-21.3393,55.4781,Alize Plage
618,Shubarshi,KZ,75.94,clear sky,48.5872,57.1869,
619,Sibiti,CG,77.5,overcast clouds,-3.6819,13.3499,Gaby et confort
620,Ensley,US,82.53,clear sky,30.5188,-87.2728,Holiday Inn Express & Suites Pensacola W I-10
623,Karpathos,GR,80.56,few clouds,35.507,27.2132,Alex
627,Dwarka,IN,88.39,scattered clouds,22.2394,68.9678,Hotel Narayan Avezika Comfort
629,Pirganj,BD,88.7,overcast clouds,25.8523,88.3618,Modern Hostel
630,Kayes,ML,84.06,clear sky,14.0,-11.0,
631,Ascension,US,79.07,clear sky,30.2169,-90.9001,Highland Inn
633,Coria,ES,87.46,overcast clouds,39.9879,-6.5377,Hotel San Cristóbal
639,Seminole,US,80.87,clear sky,28.7086,-81.2081,Ono Hot Dog Cart and Catering Lemonade and Shaved Hawaiian Ice
643,Aketi,CD,85.64,overcast clouds,2.7388,23.7833,
647,Kabare,CD,75.22,clear sky,-2.4683,28.8242,Hôtel Panorama
652,Kibala,TD,86.18,overcast clouds,9.1104,18.3463,hotel safari
654,Umm Kaddadah,SD,88.02,overcast clouds,13.6017,26.6876,
657,Rescaldina,IT,82.92,clear sky,45.6165,8.9538,UNAHOTELS Malpensa
661,Beyneu,KZ,88.77,broken clouds,45.3167,55.2,NUR
662,Buarcos,PT,86.23,overcast clouds,40.166,-8.8768,Hotel Sweet Atlantic SPA
665,Anloga,GH,81.61,overcast clouds,5.7947,0.8973,Pin Drop Hotel
666,Birao,CF,78.21,overcast clouds,10.2849,22.7882,
667,Amurrio,ES,85.86,broken clouds,43.05,-3.0,Hotel Restaurante Aldama
673,Male,MV,83.71,overcast clouds,4.1748,73.5089,Hotel Octave Maldives
675,Goundi,TD,87.94,overcast clouds,9.3627,17.366,
677,Abay,KZ,75.58,broken clouds,49.6311,72.8539,Guest House on Abaya 144
679,Joshimath,IN,86.74,scattered clouds,30.5667,79.5667,Shivalik Camps & Resort
680,Lere,NG,81.16,broken clouds,10.387,8.5726,
683,Statesboro,US,81.93,clear sky,32.4488,-81.7832,"Holiday Inn Statesboro-University Area, an IHG Hotel"
684,Salamiyah,SY,82.24,clear sky,35.0113,37.0532,Gondolas Forum grandchildren and grandparents
690,Kingston,JM,77.23,overcast clouds,17.997,-76.7936,The Jamaica Pegasus Hotel
692,Adre,TD,84.47,broken clouds,13.4667,22.2,
693,Lolodorf,CM,75.49,light rain,3.2333,10.7333,Auberge la cité
694,Kodinar,IN,88.61,broken clouds,20.7903,70.7031,residency of N.B vadhel
695,Santa Rosa,PH,89.1,overcast clouds,14.3122,121.1114,Erlyn’s Sta Rosa City Home
701,Tamandare,BR,75.7,overcast clouds,-8.7597,-35.1047,Pousada 100 Passos
702,Funadhoo,MV,83.14,overcast clouds,6.15,73.2667,Dhaffalhu Tourist Lodge
706,Umm Lajj,SA,87.76,clear sky,25.0213,37.2685,Moon light Furnished Units
707,Douala,CM,82.53,light rain,4.0483,9.7043,Douala Rabingha Hôtel
708,Kankakee,US,78.82,clear sky,41.15,-87.8667,Fairfield Inn by Marriott Kankakee Bourbonnais
711,Dakar,SN,77.88,broken clouds,14.6937,-17.4441,Novotel Dakar
714,Kamakwie,SL,76.57,light rain,9.5,-12.2333,White House Hotel
716,Bubanza,BI,83.77,clear sky,-3.1167,29.4,Maison d'accueil le buissonnet
717,Karacakoy,TR,85.84,clear sky,41.4029,28.3834,
724,Syracuse,IT,83.57,clear sky,37.0881,15.2792,Hotel Posta
725,Witu,KE,82.56,clear sky,-2.3889,40.4382,
728,Pascagoula,US,80.64,clear sky,30.3658,-88.5561,Regency Inn
733,Kruje,AL,84.22,clear sky,41.5092,19.7928,Hotel Panorama Kruje
736,Banepa,NP,82.72,broken clouds,27.6298,85.5214,Dhulikhel Lodge Resort
738,Mbandaka,CD,81.18,overcast clouds,0.0487,18.2603,Guest House Epervier
744,Antequera,ES,87.46,broken clouds,37.0194,-4.5612,Convento de la Magdalena
746,Lafiagi,NG,89.17,broken clouds,8.8667,5.4167,Bus group international
749,Springdale,US,79.99,clear sky,36.1867,-94.1288,Springdale Inn
751,Lindi,TZ,86.63,clear sky,-10.0,39.7167,Lindi paradise house
753,Bertoua,CM,77.56,light rain,4.5833,13.6833,Hotel De Paris
754,Soyo,AO,78.06,overcast clouds,-6.1349,12.3689,Hospedaria ndozi'ame
755,Safita,SY,76.12,scattered clouds,34.8205,36.1153,Safita Cham Hotel
757,Barra Patuca,HN,76.87,overcast clouds,15.8,-84.2833,
759,Charleston,US,82.42,clear sky,32.7766,-79.9309,The Mills House Wyndham Grand Hotel
760,Manaure,CO,79.16,broken clouds,11.7751,-72.4445,Hotel Palaaima
767,Dhidhdhoo,MV,82.76,overcast clouds,6.8833,73.1,Dhidhoo beach
774,Praia,CV,75.74,few clouds,14.9215,-23.5087,LT Aparthotel
780,Madimba,TZ,82.67,clear sky,-10.4,40.3333,
781,Srivardhan,IN,86.77,scattered clouds,18.0333,73.0167,Savli Resort/Hotel - Shrivardhan
783,Borovsk,RU,76.42,scattered clouds,55.2064,36.4861,Dining House in Borovsk
784,Palm Coast,US,80.08,scattered clouds,29.585,-81.2078,Hammock Beach Golf Resort & Spa
797,Fatezh,RU,76.98,clear sky,52.0891,35.8632,"Hotel ""Fatezh"""
798,Tinde,TZ,83.37,clear sky,-3.8833,33.2,TGHS Hostels
801,Luanda,AO,78.8,few clouds,-8.8368,13.2343,EPIC SANA Luanda
805,Kamskoye Ustye,RU,75.2,broken clouds,55.2016,49.268,"Mini-Otel' ""Klovoye Mestechko"""
809,Kulhudhuffushi,MV,82.87,overcast clouds,6.6221,73.07,Haajy Guest House 1
813,Bardiyah,LY,78.62,clear sky,31.7561,25.0865,بورتو بردية
814,Bambari,CF,83.95,overcast clouds,5.768,20.6757,Hotel-Restaurant BIBICH
819,Kashary,RU,82.26,few clouds,49.04,41.0056,Гостиница N 1
823,Ambilobe,MG,89.31,few clouds,-13.2,49.05,Hôtel & Restaurant DIANA Ambilobe
830,Lodja,CD,88.72,overcast clouds,-3.4833,23.4333,
834,Valladolid,ES,85.71,broken clouds,41.5833,-4.6667,Hotel Ruta del Duero
836,Sao Jose De Ribamar,BR,80.98,clear sky,-2.5619,-44.0542,Mediterrânea Hotel e Restaurante
837,Chalus,IR,79.68,clear sky,36.655,51.4204,Rama Spa
839,Barda,AZ,83.48,clear sky,40.3744,47.1267,Prins Motel Restoran
843,Puerto Colombia,CO,78.89,overcast clouds,10.9878,-74.9547,Hotel El Emigrante
844,Lagdo,CM,88.61,overcast clouds,9.05,13.7333,
848,Bella Vista,US,80.76,clear sky,36.4295,-94.2316,The Inn at Bella Vista
855,Dharmadam,IN,85.5,broken clouds,11.7833,75.4333,Samudra Homes
857,Mikhaylovka,RU,82.78,few clouds,50.06,43.2379,5 Komnat
859,Porto Novo,BJ,84.06,broken clouds,6.4965,2.6036,Tour Eiffel Hotel Benin
861,Gorizia,IT,80.26,clear sky,45.9167,13.5,Hotel Franz
862,Yenotayevka,RU,80.49,broken clouds,47.2456,47.0281,Hotel Voyage
867,Port Blair,IN,87.84,scattered clouds,11.6667,92.75,"Welcomhotel By ITC Hotels, Bay Island, Port Blair"
879,Boende,CD,82.4,overcast clouds,-0.2167,20.8667,
880,Kisangani,CD,87.12,broken clouds,0.5167,25.2,Grand Ramela Hotel
883,Banamba,ML,89.06,clear sky,13.55,-7.45,Kassela de Banamba
888,Elmina,GH,81.09,scattered clouds,5.0898,-1.348,Esteem Kofi and Adjoa Guesthouse
889,Damietta,EG,80.19,clear sky,31.4165,31.8133,SULIMAN INN
890,Msanga,TZ,79.54,clear sky,-6.05,36.0333,
894,Kanniyakumari,IN,86.5,overcast clouds,8.0833,77.5667,Sparsa Kanyakumari
895,Mwinilunga,ZM,76.62,clear sky,-11.7358,24.4293,Kwakuwahi Lodge
897,Cartagena,CO,78.42,scattered clouds,10.3997,-75.5144,Hotel Colombia Real - Cartagena
903,Sao Goncalo Do Amarante,BR,75.13,broken clouds,-3.6072,-38.9683,Sunshine Inn
904,Sesheke,ZM,75.06,clear sky,-17.4759,24.2968,Protea Hotel by Marriott Zambezi River Lodge
905,Tricase,IT,82.33,clear sky,39.9304,18.3553,Hotel Adriatico
906,Lake City,US,76.78,scattered clouds,30.1897,-82.6393,Ramada Limited Lake City
909,Salo,IT,82.49,broken clouds,45.6086,10.531,Park Hotel Casimiro Village - Blu Hotels
916,Stephenville,US,80.24,clear sky,32.2207,-98.2023,La Quinta Inn & Suites by Wyndham Stephenville
922,Balkhash,KZ,79.41,scattered clouds,46.844,74.9804,Family
926,Tulu Bolo,ET,78.06,overcast clouds,8.6667,38.2167,Kiya Sime Hotel
927,Salinopolis,BR,79.97,overcast clouds,-0.6136,-47.3561,Salinas Park Resort Maçarico AP101
928,Rock Sound,BS,80.28,scattered clouds,24.9,-76.2,Pink Corral Bay Property
936,Mitsamiouli,KM,79.95,clear sky,-11.3847,43.2844,Foyer ADM
939,Omboue,GA,79.65,broken clouds,-1.5746,9.2618,Hotel Olako
940,Saint Augustine,US,80.1,overcast clouds,29.8947,-81.3145,St. George Inn
945,Meiganga,CM,76.01,overcast clouds,6.5167,14.3,DFR HOUSE
947,Ginir,ET,76.23,light rain,7.1333,40.7,Sura Dare Village
948,Mtwara,TZ,82.22,clear sky,-10.2667,40.1833,TIL Hotels Mtwara
949,Bossangoa,CF,83.32,overcast clouds,6.4926,17.4552,LA PERLE DE BOSTON
951,Matai,TZ,75.7,clear sky,-8.3,31.5167,Rashid agro vet
953,Parrita,CR,75.78,overcast clouds,9.5201,-84.3225,Beso del Viento
955,Viransehir,TR,84.06,clear sky,37.2353,39.7631,Viranşehir Öğretmenevi
957,Mariinsk,RU,81.39,overcast clouds,56.2139,87.7472,"Hotel ""Tourist"""
960,Camacari,BR,80.37,scattered clouds,-12.6975,-38.3242,Sítio Blasi
961,Asasa,ET,75.81,broken clouds,7.1,39.2,abc
966,Havelock,US,82.38,few clouds,34.8791,-76.9013,Sherwood Motel
968,Merritt Island,US,80.04,clear sky,28.5392,-80.672,
980,Matadi,CD,78.98,overcast clouds,-5.8167,13.45,Hotel Vivi Palace
981,Monrovia,LR,79.57,overcast clouds,6.3005,-10.7969,Sunset Inn
986,Mandiana,GN,79.81,clear sky,10.6333,-8.6833,Motels rouzo
988,Niamey,NE,88.09,overcast clouds,13.5137,2.1098,Soluxe Hotel Niamey
994,Nouakchott,MR,76.93,broken clouds,18.0858,-15.9785,HOTEL IMAN
998,Marsala,IT,87.93,clear sky,37.7966,12.4352,Villa Favorita Hotel e Resort
999,Thomasville,US,75.4,scattered clouds,35.8826,-80.082,Comfort Inn Thomasville I-85
1000,Tukrah,LY,77.52,clear sky,32.5341,20.5791,Lagrota restaurant
1001,Matara,LK,85.39,light rain,5.9485,80.5353,Amaloh Boutique Resort
1003,Bafoulabe,ML,84.96,clear sky,13.8065,-10.8321,Logement du Chargé SIS Abdoul Karim Konaté
1005,Sadovoye,RU,83.84,broken clouds,47.7764,44.5089,Putnik
1006,Padron,ES,80.73,clear sky,42.7388,-8.6606,Chef Rivera
1007,Moroni,KM,81.64,clear sky,-11.7022,43.2551,Hotel Les Arcades
1008,Nampula,MZ,80.33,clear sky,-15.1165,39.2666,Ruby Backpackers
1010,Zyryanskoye,RU,82.22,broken clouds,56.8306,86.6258,
1011,Mossendjo,CG,77.18,overcast clouds,-2.9506,12.7261,HOTEL D'ASSISE
1014,Nikolayevka,RU,75.33,broken clouds,53.1257,47.2041,"Hotel ""Prestige"""
1016,Patitirion,GR,81.37,clear sky,39.15,23.8667,Pension Votsi
1020,Gasa,PS,87.87,clear sky,31.5,34.4667,رابطة الفنانين الفلسطينيين
1021,Geri,CY,85.39,scattered clouds,35.1,33.4167,Latsia Budget Residences
1022,Pirgos,GR,81.63,clear sky,35.1167,25.7178,Elpida Village
1025,Bouca,CF,82.18,overcast clouds,6.5105,18.2733,
1026,Bondo,CD,87.26,overcast clouds,3.8146,23.6866,
1027,Kukuna,SL,77.05,light rain,9.4,-12.6667,
1028,Awbari,LY,88.84,clear sky,26.5921,12.7805,فندق أوباري
1035,Serafimovich,RU,82.62,clear sky,49.5786,42.736,Donskiye Prostory
1036,Artvin,TR,76.57,light rain,41.1667,41.8333,Koru Butik Otel
1038,Javanrud,IR,84.13,clear sky,34.7961,46.5172,Bonnie power
1039,Kardamaina,GR,83.68,clear sky,36.7814,27.1425,HOTEL
1040,Toccoa,US,76.82,clear sky,34.5773,-83.3324,Quality Inn
1044,Pointe-Noire,CG,77.7,broken clouds,-4.7761,11.8635,Kactus Lodge
1045,Gamba,GA,79.25,overcast clouds,-2.65,10.0,
1046,Villaviciosa,ES,78.6,broken clouds,43.4813,-5.4357,Hotel Carlos I
1047,Marovoay,MG,88.23,clear sky,-16.1,46.6333,Hôtel les Oliviers Marovoay
1048,Shakawe,BW,75.02,clear sky,-18.3667,21.85,Ditlhapi Guest House
1050,Seguela,CI,78.6,broken clouds,7.9611,-6.6731,Hotel le Carrefour
1051,Am Timan,TD,86.07,overcast clouds,11.0297,20.2827,Palais du chef Canton Salamt
1053,South Venice,US,80.15,clear sky,27.0531,-82.4243,"Island Sun Inn & Suites - Venice, Florida Historic Downtown & Beach Getaway"
1056,Mahon,ES,86.56,clear sky,39.8885,4.2658,ARTIEM Capri
1062,Longonjo,AO,75.09,few clouds,-12.9067,15.2533,
1066,Pedernales,DO,78.3,scattered clouds,18.0384,-71.744,Hotel Costa Marina
1067,Lagos,NG,82.72,light rain,6.5833,3.75,
1069,Nakapiripirit,UG,79.12,few clouds,1.9167,34.7833,
1072,Navsari,IN,89.49,scattered clouds,20.9524,72.9324,Circuit House
1074,Lodwar,KE,88.29,scattered clouds,3.1191,35.5973,Solmar Gracious Hotel
1075,Saint Pete Beach,US,81.07,clear sky,27.7253,-82.7412,Sirata Beach Resort
1076,Kaniama,CD,85.32,clear sky,-7.5667,24.1833,
1078,Springfield,US,78.22,clear sky,37.2153,-93.2982,Best Western Route 66 Rail Haven
1087,Kalabo,ZM,75.22,clear sky,-14.97,22.6814,Sikakubete Guest House Kalabo Town Council
1089,Teguldet,RU,86.61,broken clouds,57.3064,88.1667,
1091,Anzio,IT,89.85,clear sky,41.4853,12.6179,Hotel Lido Garda
1094,Paralimni,CY,86.49,few clouds,35.0375,33.9833,Amore Hotel Apartments
1095,Akcaabat,TR,75.07,broken clouds,41.0212,39.5715,AKOF APART
1098,Muscle Shoals,US,78.15,clear sky,34.7448,-87.6675,Microtel Inn & Suites by Wyndham Tuscumbia/Muscle Shoals
1099,Camabatela,AO,77.85,broken clouds,-8.1881,15.375,Comércio e Prestação de Serviços
1102,Terme,TR,76.93,scattered clouds,41.2092,36.9739,OTEL GÜVEN TERME
1105,Mtambile,TZ,78.53,light rain,-5.3833,39.7,
1108,Natal,BR,75.42,scattered clouds,-5.795,-35.2094,Villa Park Hotel | Natal
1110,Yermolino,RU,76.55,scattered clouds,55.1949,36.5951,Rayskoe Naslazhdenie
1111,Awjilah,LY,84.24,clear sky,29.1081,21.2869,المنزل
1113,Sabha,LY,88.18,clear sky,27.0377,14.4283,محطة ام الارانب -سبها مواصلات
1116,Bhatkal,IN,84.13,scattered clouds,13.9667,74.5667,Nilawar Palace
1119,Sajanan,TN,83.32,clear sky,37.0573,9.2426,Centre de culture du tabac sejenene
1121,Pujehun,SL,77.76,overcast clouds,7.3581,-11.7208,Fanny Guesthouse
1124,Bon Air,US,77.86,clear sky,37.5249,-77.5578,DoubleTree by Hilton Hotel Richmond - Midlothian
1126,Kasungu,MW,75.6,clear sky,-13.0333,33.4833,Mame Motel
1129,Darnah,LY,77.38,clear sky,32.767,22.6367,فندق الفردوس
1131,Goma,CD,75.16,clear sky,-1.6792,29.2228,"Goma, CENTRE D'ACCUEIL CARITAS"
1133,Pervomayskoye,RU,84.61,broken clouds,43.919,46.7102,
1135,Black River,JM,76.53,overcast clouds,18.0264,-77.8487,Idlers' Rest Beach Hotel
1137,Bani,DO,75.78,scattered clouds,18.2833,-70.3333,Hospedaje Henriquez
1140,Veraval,IN,88.23,scattered clouds,20.9,70.3667,Lords Inn Somnath
1141,Yining,CN,88.25,overcast clouds,29.0361,114.5636,Xiushui Hotel
1145,Paracuru,BR,75.11,scattered clouds,-3.41,-39.0306,Hotel Vento Brasil
1146,Durham,US,80.53,overcast clouds,36.0335,-78.8664,Hampton Inn & Suites Durham/North I-85
1147,Caxito,AO,80.85,broken clouds,-8.5785,13.6643,
1149,Farafenni,GM,80.1,broken clouds,13.5667,-15.6,Eddy's Hotel
1155,Turayf,SA,82.65,clear sky,31.6725,38.6637,Turaif
1157,Kolondieba,ML,84.88,broken clouds,11.0882,-6.8926,Hotel Dakan
1158,Gonaives,HT,76.14,scattered clouds,19.45,-72.6833,Vertières Doux Séjour
1159,Srednyaya Akhtuba,RU,82.06,overcast clouds,48.7089,44.8667,"Topolya, Baza Otdykha Ooo ""Fort"""
1160,Bulungu,CD,86.13,overcast clouds,-4.55,18.6,Maison MC Michel
1161,Subiaco,IT,85.87,clear sky,41.9254,13.0941,B&B Al Campo
1162,Digoin,FR,78.12,clear sky,46.4812,3.9795,Hotel Du Rond Point
1163,Bolama,GW,80.94,broken clouds,11.5833,-15.4667,Hotel Samaritana
1167,Cuamba,MZ,80.4,clear sky,-14.8031,36.5372,Hotel Vision
1168,Carutapera,BR,75.6,broken clouds,-1.195,-46.02,Lidera
1170,Pedasi,PA,76.06,overcast clouds,7.5333,-80.0333,Hotel Casa de Campo Pedasí
1172,Kaffrine,SN,80.33,light rain,14.1059,-15.5508,Beuleup counda motel
1175,Tuscaloosa,US,78.1,mist,33.2098,-87.5692,Hampton Inn Tuscaloosa-University
1177,Dzilam Gonzalez,MX,75.36,overcast clouds,21.2833,-88.9333,posadas
1179,Salme,NP,77.29,broken clouds,28.0369,85.0942,Shyam b tamang
1180,Paoua,CF,83.26,overcast clouds,7.2427,16.4406,Quartier Paoua Elien
1183,Jvari,GE,75.58,broken clouds,42.7169,42.052,Savanna House
1186,George Town,MY,87.89,thunderstorm,5.4112,100.3354,Cititel Penang
1187,Garissa,KE,87.44,broken clouds,-0.4536,39.6401,Sharif Plaza Hotel
1193,Crema,IT,84.02,clear sky,45.3588,9.6683,Park Hotel Residence
1196,Sosua,DO,75.18,few clouds,19.7667,-70.5167,Piergiorgio Palace Hotel
1197,Loubomo,CG,79.63,overcast clouds,-4.1997,12.6739,La Dolisienne
1202,Mizdah,LY,80.06,clear sky,31.4451,12.9801,محمدالمبروك الاريقط
1208,Zharkent,KZ,82.45,overcast clouds,44.1628,80.0,гостиница Satti
1210,Aljezur,PT,76.17,overcast clouds,37.3191,-8.8033,Amazigh Hostel
1212,Georgiyevka,KZ,89.64,clear sky,43.0369,74.7114,Gostinitsa Imperiya
1214,Beboto,TD,84.97,overcast clouds,8.2668,16.939,
1216,Watsa,CD,77.36,light rain,3.0372,29.5355,Hôtel Le Pacifique
1217,Catio,GW,80.71,light rain,11.2833,-15.25,Pausada Morabedja
1225,Gautier,US,80.69,clear sky,30.3858,-88.6117,Magnolia Inn of Gautier
1226,Batticaloa,LK,88.29,overcast clouds,7.7102,81.6924,Grand Star Guest House
1227,Nargana,PA,76.77,overcast clouds,9.4428,-78.5906,Dubbir
1228,Mayumba,GA,77.65,overcast clouds,-3.432,10.6554,LIKWALE LODGE
1231,Lumberton,US,79.11,overcast clouds,34.6182,-79.0086,"Country Inn & Suites by Radisson, Lumberton, NC"
1234,Lardos,GR,80.42,clear sky,36.0942,28.0157,Lindos Princess Beach Hotel
1235,Rey Bouba,CM,89.49,overcast clouds,8.6724,14.1786,
1248,Labelle,US,80.65,clear sky,26.7617,-81.4384,Port LaBelle Inn
1250,Samana,DO,75.61,broken clouds,19.2056,-69.3369,The Bannister - Hotel & Yacht Club
1251,Podgornoye,RU,79.02,clear sky,51.735,39.1496,"O 'Hara's Irish Pub, restaurant, hotel"
1253,Maputo,MZ,76.23,clear sky,-25.9653,32.5892,Pestana Rovuma
1256,Kribi,CM,79.47,light rain,2.95,9.9167,Hotel Tara Plage
1257,Xacmaz,AZ,81.9,clear sky,41.4635,48.806,Ulduz Hotel
1258,Loandjili,CG,78.91,scattered clouds,-4.7561,11.8578,Résidence ARCHANGE
1261,Mouzouras,GR,80.6,few clouds,35.5333,24.15,Areti Suites
1267,Limulunga,ZM,75.43,clear sky,-15.0969,23.1376,Acamms Gardens
1268,Yenagoa,NG,82.26,light rain,4.9247,6.2642,Aridolf Resort Wellness and Spa
1269,Tashtyp,RU,83.75,overcast clouds,52.7939,89.8983,Oblachnyye Glubiny Orden Gusu Lan'
1271,Vermilion,US,81.55,clear sky,40.1667,-87.7506,Sparkling Springs Cabin
1272,Diapaga,BF,86.63,overcast clouds,12.0708,1.7889,
1278,Tokmak,UA,85.75,clear sky,47.2514,35.7058,Дом приезжих
1286,Ocsod,HU,75.99,broken clouds,46.9,20.4,Szakács Alíz nyaralója
1287,Ozinki,RU,75.24,clear sky,51.1786,49.6769,Korolevskiy Dvor
1292,Socorro,US,85.91,broken clouds,31.6546,-106.3033,guarderia imss papalote
1294,Timiryazevskiy,RU,85.15,light rain,56.49,84.8769,Kovcheg
1295,Tete,MZ,82.02,clear sky,-16.1564,33.5867,Zambeze Paraíso Misterioso
1297,Reggio Di Calabria,IT,82.98,few clouds,38.1105,15.6613,Hotel Continental
1300,Somanda,TZ,78.84,broken clouds,-3.3667,33.95,
1308,Masingbi,SL,75.88,light rain,8.7833,-11.95,
1311,Taylorville,US,80.78,clear sky,39.5489,-89.2945,Economy Inn
1313,Villa Rica,US,77.79,clear sky,33.7321,-84.9191,Days Inn by Wyndham Villa Rica
1316,Parabel,RU,75.78,scattered clouds,58.6978,81.4825,Housing Complex Gazprom Transgaz Tomsk
1317,Safranbolu,TR,78.17,broken clouds,41.2508,32.6942,GuleviSafranbolu Hotel
1319,Tignere,CM,76.19,overcast clouds,7.3667,12.65,SADECK
1321,Cabinda,AO,78.91,overcast clouds,-5.55,12.2,Hotel Maiombe
1323,Marmaris,TR,80.55,clear sky,36.855,28.2742,BLUE BAY PLATINUM HOTEL
1324,Greeneville,US,75.34,clear sky,36.1632,-82.831,General Morgan Inn and Conference Center
1331,Gandajika,CD,86.38,clear sky,-6.75,23.95,Hôtel Memorial
1337,Dubreka,GN,77.36,moderate rain,9.7911,-13.5233,Hôtel le Semeur Chez Eva
1339,Sao Jose Da Coroa Grande,BR,75.47,broken clouds,-8.8978,-35.1478,Crôa Mares Hotel
1342,Oranjestad,AW,80.55,few clouds,12.524,-70.027,Divi Village Golf & Beach Resort
1345,Ouargaye,BF,87.42,overcast clouds,11.5033,0.0572,Résidence le Cotonnier
1346,Mananara,MG,79.47,broken clouds,-16.1667,49.7667,Chez Roger
1348,Kampene,CD,86.79,few clouds,-3.6,26.6667,
1349,Kavadarci,MK,76.62,broken clouds,41.4331,22.0119,Hotel Feni
1351,Tarboro,US,79.18,clear sky,35.8968,-77.5358,SureStay Plus Hotel Tarboro by Best Western
1352,Zhezkazgan,KZ,82.38,clear sky,47.8043,67.7144,Hotel Zumrat
1353,Izyum,UA,79.63,overcast clouds,49.2088,37.2485,Hotel Terem
1354,Rudsar,IR,80.58,clear sky,37.1376,50.288,Hotel Bahar
1355,Paidha,UG,77.7,broken clouds,2.4167,30.9855,OPIPAAF (OTHUMBA PITHUA PALWONGA )
1359,Hargeysa,SO,87.31,overcast clouds,9.56,44.065,City Center Hotel
1363,Dingli,MT,82.56,clear sky,35.8614,14.3822,The Xara Palace Relais & Chateaux
1376,Nalut,LY,80.46,clear sky,30.3333,10.85,
1379,Poitiers,FR,77.79,clear sky,46.5833,0.3333,ibis Poitiers Centre
1381,Galle,LK,84.16,overcast clouds,6.0367,80.217,Amangalla
1383,Tsaratanana,MG,83.53,clear sky,-16.7833,47.65,
1396,Gombe,NG,85.91,broken clouds,10.2897,11.1673,Custodian Hotel Gombe
1401,Raga,SS,85.68,overcast clouds,8.4596,25.678,
1402,Miandrivazo,MG,86.13,clear sky,-19.5167,45.4667,Hôtel Arc En Ciel Miandrivazo
1405,Aden,YE,89.44,overcast clouds,12.7794,45.0367,Sama Emirate Hotel
1406,Aiken,US,82.11,clear sky,33.5835,-81.5998,Aiken Cottages
1407,Gardez,AF,82.49,clear sky,33.5974,69.2259,Gardezi Home
1408,Nyimba,ZM,77.58,clear sky,-14.5566,30.8149,Dali Dali Lodge
1409,Osypenko,UA,82.09,scattered clouds,46.9136,36.8253,
1410,Alabaster,US,78.89,mist,33.2443,-86.8164,"Candlewood Suites Alabaster, an IHG Hotel"
1413,Pozoblanco,ES,89.64,scattered clouds,38.3791,-4.8483,Hotel Nomada
1415,Ippy,CF,79.0,moderate rain,6.2679,21.2247,
1416,Morondava,MG,81.21,clear sky,-20.2833,44.2833,La Case Bambou
1424,Kermanshah,IR,86.9,clear sky,34.3142,47.065,Sina Hotel
1430,Aleksandrovka,UA,85.53,scattered clouds,46.8383,32.7612,
1432,Domoni,KM,81.57,clear sky,-12.2569,44.5319,Al Djadid
1441,Belousovka,KZ,83.25,broken clouds,50.1339,82.5239,
1444,Tripoli,LY,78.98,clear sky,32.8752,13.1875,Al Waddan Hotel
1445,French Harbor,HN,80.08,overcast clouds,16.35,-86.4333,"Fantasy Island Beach Resort, Dive & Marina"
1447,Kasongo-Lunda,CD,87.94,broken clouds,-6.4667,16.8167,
1452,Mankono,CI,82.51,broken clouds,8.0586,-6.1897,Hôtel cotonputeur
1455,Kapasan,ID,80.29,overcast clouds,-6.7773,111.3789,Perum Perhutani Kph Mantingan
1457,Putineiu,RO,77.79,light rain,43.9,25.7333,Domeniul Cazacu
1458,Mirnyy,RU,78.24,overcast clouds,62.5353,113.9611,квартира
1460,Chepareria,KE,75.96,few clouds,1.3077,35.2039,Hamza Lodge
1463,Callaway,US,81.91,scattered clouds,30.153,-85.5699,"Holiday Inn Express & Suites Panama City-Tyndall, an IHG Hotel"
1464,Sivota,GR,84.02,clear sky,39.4078,20.2452,Hotel Filakas
1468,Grand-Lahou,CI,82.35,broken clouds,5.1367,-5.0242,Hotel Beatitude de Grand Lahou
1469,Brive-La-Gaillarde,FR,87.84,scattered clouds,45.25,1.5,Logis Hôtel la Gamade
1474,Ndioum,SN,82.29,overcast clouds,16.5129,-14.6471,l'hôtel samassa
1477,Koygorodok,RU,75.11,broken clouds,60.445,50.9968,
1478,Punto Fijo,VE,77.85,broken clouds,11.6956,-70.1996,Santa Fe Inn Hotel
1479,Montepuez,MZ,82.78,clear sky,-13.1256,38.9997,PembaAparthotel
1481,Nalobikha,RU,77.0,overcast clouds,53.2006,84.6039,
1484,Morant Bay,JM,80.22,overcast clouds,17.8815,-76.4093,Whispering Bamboo Cove Resort
1485,Beaufort,MY,78.57,overcast clouds,5.3473,115.7455,The Gem Hotel Beaufort
1487,Donskoye,RU,82.53,overcast clouds,45.4552,41.9741,
1490,Fethiye,TR,80.47,few clouds,36.6217,29.1164,Club & Hotel Letoonia
1493,Makokou,GA,79.14,overcast clouds,0.5738,12.8642,Hôtel
1495,Tarime,TZ,77.83,light rain,-1.35,34.3667,Kifa Best Point Hotel
1499,Ekibastuz,KZ,80.02,broken clouds,51.6667,75.3667,
1502,Nioro,GM,83.05,broken clouds,13.35,-15.75,
1503,Khombole,SN,77.81,broken clouds,14.7667,-16.7,Keur serigne Mansour Sy
1505,Amol,IR,83.08,clear sky,36.4696,52.3507,Shahr Hotel
1506,Inyonga,TZ,79.88,clear sky,-6.7167,32.0667,Eden Rock Lodge
1510,Nova Odesa,UA,86.43,broken clouds,47.3078,31.7851,У Саши
1511,Saurimo,AO,85.01,clear sky,-9.6608,20.3916,Hotel Kawissa Saurimo
1519,Ormara,PK,83.68,clear sky,25.2088,64.6357,Kenara Colony House for Rent
1520,Guhagar,IN,87.24,broken clouds,17.4842,73.1929,Hotel Seawinds
1521,Sehithwa,BW,77.09,clear sky,-20.4667,22.7167,MONLEK GUEST HOUSE
1522,Abaza,RU,84.09,overcast clouds,52.655,90.0928,Гостевой дом «Кедровый»
1528,Beni,CD,83.55,clear sky,0.5,29.4667,Albertine hotel
1532,Ketou,BJ,83.93,broken clouds,7.3633,2.5998,Residences Celine Hotel Ketou
1536,Ziarat,PK,82.24,clear sky,30.3823,67.7282,Pakiza Guest House ziarat
1538,Ikere,NG,83.17,overcast clouds,7.4913,5.2322,Inisa Gardens Hotel & Events Centre
1543,Lisala,CD,88.29,overcast clouds,2.15,21.5167,Guest house Eden
1559,Le Port,RE,80.6,scattered clouds,-20.9373,55.2919,KORBEY D'OR OUEST
1564,Mocuba,MZ,78.4,clear sky,-16.8392,36.9856,Phama Lodge
1567,Methoni,GR,86.22,clear sky,36.8197,21.7049,Methoni Beach Hotel
1570,Chirongui,YT,85.93,clear sky,-12.9319,45.1483,La Villa Mahatsara
1572,Rute,ES,89.38,scattered clouds,37.3269,-4.3683,Casa Rural de La Hoz
1574,Reinosa,ES,83.66,broken clouds,42.9996,-4.138,Hotel Vejo
1585,Yarim,YE,79.59,broken clouds,14.298,44.3779,وليد المسوري ابو اسد
1586,Gorgan,IR,85.96,scattered clouds,36.8387,54.4348,Khayyam Motel
1587,Mende,FR,77.88,few clouds,44.6667,3.5,Le Plateau du Roy
1588,Pokoynoye,RU,87.01,broken clouds,44.8097,44.2517,
1590,Kilindoni,TZ,79.32,broken clouds,-7.9139,39.6668,Bustani B&B
1591,Katete,UG,83.16,scattered clouds,-0.7818,29.7544,
1600,Asmara,ER,80.47,broken clouds,15.3333,38.9333,Hamasien Hotel
1604,Debre Tabor,ET,75.04,overcast clouds,11.85,38.0167,Bahirdar
1614,Panjab,AF,75.13,clear sky,34.388,67.0233,
1627,Roccastrada,IT,85.55,clear sky,43.0099,11.1665,La Melosa Resort & Spa
1630,Gijon,ES,79.45,broken clouds,43.5357,-5.6615,Hotel Norte
1635,Ucar,AZ,89.78,clear sky,40.519,47.6542,Aşura market
1636,Igboho,NG,87.28,broken clouds,8.8333,3.75,More Hotet LTD
1638,Harlingen,US,82.31,few clouds,26.1906,-97.6961,Courtyard by Marriott Harlingen
1641,Kissidougou,GN,75.38,overcast clouds,9.1848,-10.0999,Hôtel Mantis
1643,Sikonge,TZ,86.99,scattered clouds,-5.6333,32.7667,Pretoria 2 Lodge
1645,Neka,IR,83.71,broken clouds,36.6508,53.299,گالری گل وندا
1648,Melilla,ES,84.4,clear sky,35.2937,-2.9383,Hotel Anfora
1652,Badou,TG,79.41,overcast clouds,7.5833,0.6,Hôtel Abuta
1653,Kumluca,TR,78.46,light rain,36.3703,30.2869,Akkol Apart
1655,Kompaniyivka,UA,76.77,light rain,48.2511,32.208,
1659,Ferrol,ES,86.72,clear sky,43.4832,-8.2369,Hotel Spa Sercotel Odeón
1662,Gilgit,PK,86.36,scattered clouds,35.9221,74.3087,Tourist Hamlet Gilgit
1664,Adzope,CI,81.41,broken clouds,6.1069,-3.8619,Hôtel AKL
1673,Mpika,ZM,75.2,clear sky,-11.8343,31.4529,Melodies Lodge
1675,Lafia,NG,86.07,broken clouds,8.4833,8.5167,Low Cost Housing Estate
1679,Herrin,US,82.0,clear sky,37.8031,-89.0276,Mary's Restaurant
1680,San Pedro,PH,87.03,thunderstorm with light rain,14.35,121.0167,Esquivel's Garden And Resort
1682,Portoferraio,IT,84.69,clear sky,42.8115,10.3146,Hotel Villa Ombrosa
1687,Fort-Shevchenko,KZ,84.0,clear sky,44.5086,50.263,Oasis hotel Bautino
1688,Tortoli,IT,87.62,clear sky,39.9256,9.6572,Hotel La Bitta
1690,Mainaguri,IN,86.02,moderate rain,26.5667,88.8167,Suncity Resort Lataguri
1692,Candolim,IN,80.6,broken clouds,15.5181,73.7626,Resort Terra Paraiso
1693,Tigzirt,DZ,87.26,clear sky,36.8886,4.1198,Bloc D tazoumbirt (amar)
1695,Bangassou,CF,87.31,overcast clouds,4.7413,22.8184,
1696,Ushtobe,KZ,89.08,scattered clouds,45.2514,77.9838,Filipin Squad
1698,Zinder,NE,87.76,clear sky,13.8072,8.9881,Hotel de Ville
1699,Kakonko,TZ,80.8,broken clouds,-3.2828,30.9642,Edward Memorial Guest House
1700,Pokhara,NP,78.53,broken clouds,28.2333,83.9833,OYO 170 Hotel View Point
1701,Namwala,ZM,76.93,clear sky,-15.7504,26.4384,Corner Point Lodge
1708,Palmas Bellas,PA,75.02,overcast clouds,9.2319,-80.0867,Antigua Residencia Galván
1710,Danville,US,77.09,broken clouds,36.586,-79.395,"Holiday Inn Express Danville, an IHG Hotel"
1716,Cedartown,US,76.75,clear sky,34.0537,-85.255,Quality Inn
1719,Shar,KZ,75.54,broken clouds,49.5886,81.0453,
1723,Wilmington,US,80.51,few clouds,34.2257,-77.9447,"Hotel Ballast Wilmington, Tapestry Collection by Hilton"
1726,Mazagao,BR,75.25,few clouds,-0.115,-51.2894,Recanto dos Ferreiras
1728,Kibaya,TZ,78.28,clear sky,-5.3,36.5667,Lusaka Hotel
1734,Taywarah,AF,78.26,clear sky,33.35,64.4167,
1741,Beroroha,MG,86.92,clear sky,-21.6667,45.1667,
1748,Pernem,IN,80.38,few clouds,15.7167,73.8,Om Kairos
1750,Pavlikeni,BG,81.68,few clouds,43.2428,25.3219,Amigos
1755,Bilokurakyne,UA,81.63,broken clouds,49.5341,38.7307,ГОСТИНИЦА ЮБИЛЕЙНАЯ( ПАЛУБА)
1759,Butajira,ET,78.42,overcast clouds,8.1167,38.3667,እናት መናፈሻ ( Enat Menafesha)
1760,Aquiraz,BR,77.09,overcast clouds,-3.9014,-38.3911,Pousada Rua Camurupim
1762,Nisia Floresta,BR,75.58,overcast clouds,-6.0911,-35.2086,Rancho Crepusculo
1765,Lazurne,UA,78.67,scattered clouds,46.084,32.5295,New Manna Hostel
1766,Zarautz,ES,87.75,overcast clouds,43.2844,-2.1699,Hotel Zarauz
1771,Sokoni,TZ,84.06,few clouds,-6.4333,39.55,Ujamaa Beach Resort
1773,Germantown,US,75.61,light rain,39.1732,-77.2717,Fairfield Inn & Suites by Marriott Germantown Gaithersburg
1775,Edremit,TR,85.75,few clouds,39.5961,27.0244,Adramis Thermal Hotel
1777,Darovskoy,RU,75.0,overcast clouds,58.77,47.9564,"Hotel ""Central"""
1778,Sanandaj,IR,86.02,clear sky,35.3144,46.9923,Sanandaj Tourist Hotel
1779,Caorle,IT,82.42,few clouds,45.5966,12.8758,Maxim
1780,Veydelevka,RU,78.62,broken clouds,50.1521,38.4492,
1781,Vila Do Maio,CV,75.99,overcast clouds,15.1333,-23.2167,Hotel Marilu
1783,Lukovit,BG,80.06,scattered clouds,43.2,24.1667,Хотел Дипломат парк
1786,Dondo,MZ,78.19,clear sky,-19.6094,34.7431,Arco Iris
1787,Qurayyat,SA,84.38,clear sky,31.3318,37.3428,Resorts Kandel
1790,Passy,FR,78.82,clear sky,45.9203,6.6877,Auberge de l'Orangerie
1797,Ponnani,IN,85.32,broken clouds,10.767,75.9252,Rouba Residency
1799,Jiwani,PK,84.97,clear sky,25.05,61.7417,Hamza hotel jiwani
1801,Yuganets,RU,77.9,overcast clouds,56.2508,43.2307,"Terem: Sauna, Kafe, Bil'yard, Gostinitsa."
1807,Front Royal,US,76.6,clear sky,38.9182,-78.1944,Hampton Inn Front Royal
1808,Laguna De Perlas,NI,75.47,overcast clouds,12.3429,-83.6712,Hotel Best View
1809,Adwa,ET,87.94,overcast clouds,14.1646,38.8955,Maay Assa Hotel
1812,Wattegama,LK,88.29,light rain,6.7989,81.4808,
1821,Lukuledi,TZ,87.48,clear sky,-10.5667,38.8,
1824,Qobustan,AZ,82.42,clear sky,40.0824,49.412,
1826,Ouango,CF,86.4,overcast clouds,4.3133,22.5552,
1828,Fuengirola,ES,83.84,clear sky,36.54,-4.6247,Hotel Las Palmeras
1831,Zulueta,ES,85.68,clear sky,42.7451,-1.5793,Hotel Pamplona Cross Elorz
1832,Humacao,PR,80.37,scattered clouds,18.1497,-65.8274,Quebrada Calle Cruz de Malta
1838,Casablanca,MA,80.62,mist,33.5928,-7.6192,فندق البيت المغربي كازبلانكا
1839,Nezlobnaya,RU,75.34,overcast clouds,44.1181,43.4028,Otel' Randevu
1843,Iglesias,IT,87.53,clear sky,39.3114,8.535,"B&B Mare Monti Miniere - Sardinia Sud-Ovest, Sulcis iglesiente, trekking, climbing Masua, Nebida, Miniere, Porto Flavia, Grotta Sardegna, Pan di Zucchero, Cammino Minerario Santa Barbara, Caserma “Trieste”,"
1848,Jaque,PA,75.63,light rain,7.5175,-78.1703,Aventuras Jaque S.A
1849,Zalegoshch,RU,75.06,clear sky,52.9008,36.8869,Inn Usadba
1854,Gwadar,PK,86.04,clear sky,25.1216,62.3254,Sadaf Resort
1858,Severnyy,RU,80.64,clear sky,50.677,36.5532,Full House North Mini-Hotel
1859,Ziniare,BF,75.24,overcast clouds,12.5822,-1.2983,Privilège Hôtel de Ziniaré
1860,Cotonou,BJ,85.98,scattered clouds,6.3654,2.4183,Novotel Cotonou Orisha
1862,Monopoli,IT,88.72,broken clouds,40.9559,17.2896,Il Melograno
1864,Mobaye,CF,85.75,overcast clouds,4.319,21.1786,
1867,Kiboga,UG,87.19,scattered clouds,0.9161,31.7742,Marie Lustenberger Guest House
1868,Tabuk,PH,84.27,scattered clouds,17.4189,121.4443,Golden Berries Hotel and Convention
1872,Banes,CU,76.66,few clouds,20.9625,-75.7186,Hostal Iván y yailet
1877,Ochakiv,UA,77.85,scattered clouds,46.6128,31.5498,Briz
1882,Homa Bay,KE,76.75,clear sky,-0.5273,34.4571,ACK Guest House - Homa Bay
1883,Jeremie,HT,77.63,broken clouds,18.65,-74.1167,Auberge’Inn
1888,Uyo,NG,84.52,light rain,5.0333,7.9266,Economy Lodge
1890,Luena,AO,79.81,clear sky,-11.7833,19.9167,Hotel Kandamba
1891,Kangaba,ML,89.01,clear sky,11.9333,-8.4167,CAF (case de l´amitié et de la fraternité)
1892,Clearwater,US,80.92,scattered clouds,27.9659,-82.8001,Residence Inn by Marriott Clearwater Downtown
1894,Brazzaville,CG,77.31,overcast clouds,-4.2658,15.2832,Hotel Muesse
1897,Korablino,RU,75.18,clear sky,53.9164,40.0133,Mini-Otel' Bazilik Korablino
1898,New Port Richey,US,80.96,few clouds,28.2442,-82.7193,Quality Inn & Suites Conference Center
1901,Vikersund,NO,75.06,few clouds,59.9659,9.995,Tyrifjord Hotell
1902,Abhar,IR,87.57,clear sky,36.1468,49.218,Hotel Got7
1909,Baraolt,RO,76.64,broken clouds,46.0751,25.6003,Castle Hotel Daniel
1910,Mporokoso,ZM,81.21,clear sky,-9.3727,30.125,Government Guest House
1911,Ponazyrevo,RU,76.14,overcast clouds,58.3578,46.3142,"Ovsyanitsa, Motel'"
1912,Boa Vista,BR,75.18,broken clouds,2.8197,-60.6733,Aipana Plaza Hotel
1923,Reni,UA,78.55,broken clouds,45.4573,28.2932,"Gostinitsa ""Iuzhnyi"""
1924,Maniago,IT,79.14,few clouds,46.1706,12.7078,Hotel Al Giardino
1928,Conil,FR,76.71,few clouds,44.9673,3.7177,La Cabourne
1932,Oliveira Do Hospital,PT,85.23,overcast clouds,40.3618,-7.8601,Casa da Bezerra
1933,Port Charlotte,US,79.0,clear sky,26.9762,-82.0906,Knights Inn Port Charlotte
1938,Chirnogi,RO,85.64,broken clouds,44.1167,26.5667,Casa Taraneasca
1944,Jijiga,ET,79.99,overcast clouds,9.35,42.8,RAMAAS HOTEL
1945,Midland,US,81.27,clear sky,31.9974,-102.0779,DoubleTree by Hilton Hotel Midland Plaza
1950,Kathu,TH,89.69,broken clouds,7.9178,98.3332,Novotel Phuket Resort
1960,Aleksandrovskoye,RU,78.58,overcast clouds,44.7142,43.0008,Mini hotel Tranzit
1972,Sorada,IN,88.16,moderate rain,19.75,84.4333,PWD Guest House
1975,Nsukka,NG,80.15,light rain,6.8561,7.3927,The AttaGate Hotels
1976,Manadhoo,MV,83.05,overcast clouds,5.7667,73.3833,Bon Abri maldives
1978,Pavlodar,KZ,78.6,broken clouds,52.3,76.95,Sary Arka
1979,Lykhivka,UA,84.6,few clouds,48.6874,33.9228,
1980,Bonoua,CI,83.82,broken clouds,5.2741,-3.595,Hotel Bon Samaritian
1981,Karema,TZ,81.55,few clouds,-6.8205,30.4389,
1987,Hun,LY,84.94,clear sky,29.1268,15.9477,Alrwasi Hotel
1989,Saint-Nazaire,FR,75.47,clear sky,47.2833,-2.2,HOTEL LE BERRY
1991,Ostrogozhsk,RU,78.67,clear sky,50.8664,39.0756,Zamok
1992,Hauterive,FR,75.96,overcast clouds,46.0901,3.4459,Aletti Palace Hotel
1993,Caucaia,BR,76.95,scattered clouds,-3.7361,-38.6531,M.O.S. Logística - Filial Fortaleza
1994,Saint Marys,US,80.71,clear sky,30.7305,-81.5465,Spencer House Inn
1997,Morbegno,IT,86.5,clear sky,46.1383,9.57,Le Cantine Del Vecchio Borgo
1999,Togur,RU,78.21,scattered clouds,58.3631,82.8265,
2000,Maridi,SS,89.02,broken clouds,4.9158,29.4742,
2001,Vichy,FR,77.36,overcast clouds,46.25,3.5833,Le Moulin Marin
2005,Zhukovo,RU,77.72,scattered clouds,55.0318,36.744,Гостиница Жуков
2008,Ayia Galini,GR,84.74,clear sky,35.1,24.6833,Sunningdale Bungalows
2009,Fereydunshahr,IR,76.84,clear sky,32.941,50.121,موسسه آسمان پرواز پرتیکان
2014,Zmeinogorsk,RU,77.25,few clouds,51.1567,82.195,"Kompastur, Gostinitsa"
2017,Demirci,TR,76.48,clear sky,39.0461,28.6589,Sungur Otel
2020,Ikom,NG,87.57,overcast clouds,5.9667,8.7063,Reho Farm & Resort
2021,Chabahar,IR,85.69,clear sky,25.2919,60.643,هتل گدروشیا
2022,Kemin,KG,78.57,broken clouds,42.7846,75.6892,Hotel Kok-Oirok
2024,Lambarene,GA,80.62,broken clouds,-0.7001,10.2406,Le Refuge
2026,Moissac,FR,85.48,few clouds,44.1024,1.0945,Hôtel & Spa Le Moulin De Moissac
2032,Rozhdestveno,RU,77.99,broken clouds,53.2375,50.0597,Country house on Proran 70 kavrtal
2035,Aran,AZ,83.75,clear sky,40.6253,46.9756,
2039,Semey,KZ,86.22,scattered clouds,50.4111,80.2275,Grand Hotel Semey
2041,Wamba,NG,85.28,broken clouds,8.9333,8.6,Roma Zee Guest House Annex
2043,Surt,LY,77.45,clear sky,31.2089,16.5887,الهادي ابوشعاله سرت
2049,Bombay,IN,89.58,haze,19.0144,72.8479,Hotel Avon Ruby-Dadar
2052,Benidorm,ES,89.31,broken clouds,38.5382,-0.131,Medplaya Hotel Flamingo Oasis
2053,Fontanka,UA,78.1,light rain,46.5626,30.8607,Villa Lavender Hotel
2056,Melfi,IT,82.96,overcast clouds,40.9965,15.6514,HOTEL TERME DI RAPOLLA
2057,Rumphi,MW,77.7,clear sky,-11.0186,33.8575,Finst Rumphi Earthbag House Lodge
2058,Burriana,ES,85.05,few clouds,39.889,-0.085,Hotel Beatriz
2065,Bandipur,NP,85.77,broken clouds,27.9333,84.4167,Bandipur Guest House
2066,Nikki,BJ,88.14,overcast clouds,9.9401,3.2108,Monnon
2069,Agdam,AZ,83.55,clear sky,39.991,46.9274,
2070,Iberia,US,78.87,clear sky,29.9502,-91.7507,back to back rv park
2071,Yelahanka,IN,89.51,scattered clouds,13.1075,77.6003,Royal Orchid Resort & Convention Centre
2072,Ulundi,ZA,77.38,overcast clouds,-28.3352,31.4162,Ekhethelo Lodge Ulundi
2074,Canchungo,GW,80.73,overcast clouds,12.0672,-16.0333,Aparthotel Napalach
2077,Lamu,KE,82.62,few clouds,-2.2717,40.902,Lamu House
2078,Longido,TZ,77.67,few clouds,-2.7333,36.6833,Longido Mountain Lodge
2083,West Lafayette,US,76.21,clear sky,40.4259,-86.9081,Hilton Garden Inn West Lafayette Wabash Landing
2085,Maryville,US,78.75,scattered clouds,35.7565,-83.9705,"Holiday Inn Express & Suites Alcoa (Knoxville Airport), an IHG Hotel"
2091,Kursk,RU,80.74,scattered clouds,51.7303,36.1939,"Gostinitsa Avrora, Kursk"
2092,Limon,CR,75.13,overcast clouds,10.0,-83.0333,Hotel Playa Bonita
2096,Apac,UG,87.46,scattered clouds,1.9756,32.5386,Double Duez Apac
2097,Potrerillos,HN,76.82,overcast clouds,15.2333,-87.9667,Colonia klavaskin
2098,Qala,AZ,84.09,clear sky,40.4418,50.1681,Shuvelan Cottage House
2101,Kembe,CF,85.06,overcast clouds,4.6228,21.8865,
2103,Gondar,ET,79.09,overcast clouds,12.6,37.4667,L Shape Hotel
2105,Recas,RO,75.22,clear sky,45.7989,21.5008,Hotel Roco
2108,Limoges,FR,80.67,clear sky,45.75,1.3333,La Gratade
2110,Vayalar,IN,84.0,overcast clouds,9.7,76.3333,Vasundhara Sarovar Premiere
2112,Bougouni,ML,88.18,scattered clouds,11.417,-7.479,Non Stop
2119,Atyrau,KZ,82.42,clear sky,47.1167,51.8833,River Palace Hotel
2120,Radcliff,US,83.44,scattered clouds,37.8404,-85.9491,Super 8 by Wyndham Radcliff Ft. Knox Area
2121,Katastarion,GR,84.09,scattered clouds,37.8333,20.7667,Clio
2126,Elizabeth City,US,79.02,clear sky,36.2946,-76.2511,Hampton Inn Elizabeth City
2127,Zelenogorsk,RU,81.72,overcast clouds,56.1147,94.5861,Kosmos
2136,Kpandae,GH,85.77,overcast clouds,8.4689,-0.0113,S. Amaski Guest House
2139,Manbij,SY,86.27,clear sky,36.5281,37.9549,Manbej City Hotel
2140,Hwange,ZW,75.07,clear sky,-18.3693,26.5019,Hwange Colliery Guest House
2144,Akyab,MM,85.32,overcast clouds,20.15,92.9,Hotel Memory
2145,Chaupal,IN,84.56,clear sky,30.95,77.5833,hotel
2149,Maun,BW,75.16,clear sky,-19.9833,23.4167,Enviro Villa
2150,Dourbali,TD,85.87,overcast clouds,11.8091,15.8632,
2153,Mitzic,GA,80.6,overcast clouds,0.7821,11.549,Motel Emys
2156,Benin,BJ,86.88,overcast clouds,9.5,2.25,
2162,Solone,UA,84.18,few clouds,48.2081,34.8721,"Канализация , слив"
2166,Rosetta,EG,78.96,clear sky,31.4044,30.4164,Green Valley
2169,Camargo,MX,75.16,scattered clouds,27.6667,-105.1667,Hotel Santa Fe
2171,Vetovo,BG,77.4,few clouds,43.7,26.2667,СТАИ ЗА ГОСТИ „ЛОМ“ - Guest House Lom
2175,Ampanihy,MG,81.57,clear sky,-24.7,44.75,Angora Hotel
2177,Mangan,IN,82.17,overcast clouds,27.5167,88.5333,Hotel Mout View
2184,Beasain,ES,85.28,overcast clouds,43.0502,-2.2009,Castillo Hotel eta Jatetxea
2188,Neftcala,AZ,81.93,clear sky,39.3742,49.2472,Otel restoran
2193,Guanica,PR,76.95,clear sky,17.9716,-66.908,Copamarina Beach Resort & Spa
2194,Gamboula,CF,82.31,overcast clouds,4.1178,15.1393,
2196,Emba,KZ,76.24,clear sky,48.8264,58.1442,
2198,Progreso,MX,76.1,overcast clouds,21.2833,-89.6667,Playa Linda Hotel
2201,Bozoum,CF,85.06,overcast clouds,6.3193,16.3799,
2206,Juybar,IR,84.36,clear sky,36.6412,52.9124,مجتمع مسکونی آرامیس ۲
2210,Trani,IT,83.86,overcast clouds,41.2727,16.4154,Marè Resort
